[
  {
    "slug": "bakucho-mihama-fishing-park",
    "title": "【愛知県】爆釣 美浜フィッシングパーク｜高級魚が狙える知多半島の釣り堀・料金・アクセス情報",
    "lat": 34.7570019,
    "lng": 136.9266298,
    "buzz_score": 15,
    "hot_topic": "通常営業"
  },
  {
    "slug": "shinmaiko-marine-park-fishing",
    "title": "【愛知県】新舞子マリンパーク魚釣り施設｜無料で700mの広大な釣り場が楽しめる知多半島の人気スポット",
    "lat": 34.9511744,
    "lng": 136.8176422,
    "buzz_score": 19,
    "hot_topic": "通常営業"
  },
  {
    "slug": "shinojima-tsuri-tengoku",
    "title": "【閉店】篠島釣り天国｜離島で楽しむ海釣り体験の記録（愛知県南知多町）",
    "lat": 34.68256,
    "lng": 137.00386,
    "buzz_score": 12,
    "hot_topic": "通常営業"
  },
  {
    "slug": "akaguri-sea-fishing-park",
    "title": "【福井県】あかぐり海釣公園｜絶景の桟橋釣り場！サビキからエギングまで楽しめる若狭湾の聖地",
    "lat": 35.52614,
    "lng": 135.6624,
    "buzz_score": 24,
    "hot_topic": "通常営業"
  },
  {
    "slug": "blue-park-ano",
    "title": "【福井県】ブルーパーク阿納｜高級魚マダイを狙え！美食の宿とセットで楽しむ海釣り体験",
    "lat": 35.5303358,
    "lng": 135.7972749,
    "buzz_score": 21,
    "hot_topic": "通常営業"
  },
  {
    "slug": "fishing-land-hyuga",
    "title": "【福井県】フィッシングランド日向｜国内最大級の巨大イケスで挑む！本格海上釣り堀",
    "lat": 35.6133965,
    "lng": 135.8953153,
    "buzz_score": 16,
    "hot_topic": "通常営業"
  },
  {
    "slug": "fishing-rainbow",
    "title": "【福井県】フィッシングレインボー｜三方五湖・日向湖で楽しむ！人気の海上釣り堀・料金・予約・攻略",
    "lat": 35.6133965,
    "lng": 135.8953153,
    "buzz_score": 21,
    "hot_topic": "通常営業"
  },
  {
    "slug": "hiruga-sea-fishing-pond",
    "title": "【福井県】ひるが海上釣堀｜三方五湖・日向湖で高級魚を狙う！手ぶらOKの人気釣り堀",
    "lat": 35.6133965,
    "lng": 135.8953153,
    "buzz_score": 23,
    "hot_topic": "通常営業"
  },
  {
    "slug": "marine-garden-leisure",
    "title": "【福井県】マリンガーデン・レジャー｜優しさNo.1！「絶対に釣らせる」熱意が凄い釣り堀",
    "lat": 35.6119146,
    "lng": 135.8938519,
    "buzz_score": 18,
    "hot_topic": "通常営業"
  },
  {
    "slug": "obama-city-fishing-coop-raft",
    "title": "【福井県】小浜市漁協・釣り筏｜若狭湾のチヌ聖地！絶景の中で楽しむ本格筏釣り",
    "lat": 35.5255668,
    "lng": 135.7317801,
    "buzz_score": 10,
    "hot_topic": "通常営業"
  },
  {
    "slug": "sea-fishing-park-mikata",
    "title": "【閉業】海釣り公園みかた｜釣ってその場でBBQ！食育にも最適な体験型釣り堀（福井県若狭町）",
    "lat": 35.6078569,
    "lng": 135.8409817,
    "buzz_score": 20,
    "hot_topic": "通常営業"
  },
  {
    "slug": "seapark-nyu",
    "title": "【福井県】シーパーク丹生｜手ぶらでGO！釣った真鯛をその場でBBQ！究極の「食育」体験",
    "lat": 35.7072761,
    "lng": 135.9709885,
    "buzz_score": 12,
    "hot_topic": "通常営業"
  },
  {
    "slug": "tsuruga-city-sea-fishing-park",
    "title": "【福井県】敦賀市海釣り公園｜入場無料！柵あり・トイレ完備のファミリー天国",
    "lat": 35.6793955,
    "lng": 136.073868,
    "buzz_score": 37,
    "hot_topic": "通常営業"
  },
  {
    "slug": "wakasa-takahama-sea-fishing-park",
    "title": "【福井県】若狭高浜海釣り公園｜入場200円！絶景の橋の上で楽しむ爽快フィッシング",
    "lat": 35.4941904,
    "lng": 135.5465806,
    "buzz_score": 32,
    "hot_topic": "通常営業"
  },
  {
    "slug": "fishing-bridge-akasaki",
    "title": "【石川県】フィッシングブリッジ赤崎｜24時間無料！能登の磯を手軽に攻める釣り桟橋",
    "lat": 37.3513122,
    "lng": 137.2636476,
    "buzz_score": 12,
    "hot_topic": "通常営業"
  },
  {
    "slug": "notojima-sea-fishing-center",
    "title": "【石川県】のとじま臨海公園「海づりセンター」｜水族館の隣で釣りデビュー！手ぶらで楽しむファミリーフィッシング",
    "lat": 37.1483566,
    "lng": 136.9827918,
    "buzz_score": 27,
    "hot_topic": "通常営業"
  },
  {
    "slug": "naoetsu-port-3rd-east-breakwater",
    "title": "【新潟県】直江津港第3東防波堤管理釣り場｜マダイ・クロダイの大物実績多数！全国屈指の人気堤防",
    "lat": 37.2046763,
    "lng": 138.2847083,
    "buzz_score": 17,
    "hot_topic": "通常営業"
  },
  {
    "slug": "niigata-east-port-2nd-east-breakwater",
    "title": "【新潟県】新潟東港第2東防波堤管理釣り場｜サワラ・ブリが狙える！ルアーマンの聖地",
    "lat": 38.0068025,
    "lng": 139.2414296,
    "buzz_score": 32,
    "hot_topic": "通常営業"
  },
  {
    "slug": "araibenten-sea-fishing-park",
    "title": "【静岡県】新居弁天海釣公園｜24時間営業で浜名湖を満喫できる釣りスポット",
    "lat": 34.6814177,
    "lng": 137.5912603,
    "buzz_score": 29,
    "hot_topic": "通常営業"
  },
  {
    "slug": "atami-port-sea-fishing-facility",
    "title": "【静岡県】熱海港海釣り施設｜500円で楽しめる絶景のマンモス堤防",
    "lat": 35.0921373,
    "lng": 139.0798242,
    "buzz_score": 34,
    "hot_topic": "通常営業"
  },
  {
    "slug": "fishing-park-toi",
    "title": "【静岡県】フィッシングパーク土肥｜1,500円で手ぶら海釣り体験！西伊豆の穴場",
    "lat": 34.9051691,
    "lng": 138.7836404,
    "buzz_score": 29,
    "hot_topic": "通常営業"
  },
  {
    "slug": "ikadatsuri-tokai",
    "title": "【静岡県】いかだ釣りの東海｜30分から遊べる！熱海・網代の手ぶら釣り堀",
    "lat": 35.0454289,
    "lng": 139.0876458,
    "buzz_score": 40,
    "hot_topic": "通常営業"
  },
  {
    "slug": "kaijo-tsuribori-maruya",
    "title": "【静岡県】海上釣り堀まるや｜富士山を望む絶景でブリ・マダイを釣り放題！",
    "lat": 35.0189175,
    "lng": 138.8368744,
    "buzz_score": 42,
    "hot_topic": "通常営業"
  },
  {
    "slug": "kaijo-tsuribori-taikoubou",
    "title": "【静岡県】海上釣り堀 太公望｜釣ってその場で食べる！網代港の究極体験",
    "lat": 35.0452551,
    "lng": 139.0868068,
    "buzz_score": 25,
    "hot_topic": "通常営業"
  },
  {
    "slug": "ishida-fisherina",
    "title": "【富山県】石田フィッシャリーナ 釣り桟橋｜立山連峰を望む絶景＆無料スポット",
    "lat": 36.8669453,
    "lng": 137.4149138,
    "buzz_score": 25,
    "hot_topic": "通常営業"
  },
  {
    "slug": "asamushi-sea-fishing-park",
    "title": "【青森県】浅虫海釣り公園｜手軽な料金・四季の魚種・初心者も安心の海釣り体験",
    "lat": 40.890908,
    "lng": 140.8594978,
    "buzz_score": 39,
    "hot_topic": "通常営業"
  },
  {
    "slug": "futomi-flower-isotsuri-center",
    "title": "【千葉県】太海フラワー磯釣りセンター｜手ぶらOK・初心者向け完全ガイド",
    "lat": 35.0766412,
    "lng": 140.0977396,
    "buzz_score": 28,
    "hot_topic": "通常営業"
  },
  {
    "slug": "original-maker-sea-fishing-park",
    "title": "【千葉県】オリジナルメーカー海づり公園｜格安料金・釣りレッスン完全ガイド",
    "lat": 35.54235,
    "lng": 140.060384,
    "buzz_score": 22,
    "hot_topic": "通常営業"
  },
  {
    "slug": "yuharai-pond",
    "title": "【休止中】勇払マリーナ海上釣り堀｜北海道初！幻の海上釣り堀の記録と今後の展望",
    "lat": 42.6229306,
    "lng": 141.7331137,
    "buzz_score": 16,
    "hot_topic": "通常営業"
  },
  {
    "slug": "tomakomai-port-sea-fishing-facility",
    "title": "【北海道】苫小牧港海釣り施設（一本防波堤）｜サクラマスも狙える！定員100名の人気釣り場攻略ガイド",
    "lat": 42.6147076,
    "lng": 141.7767421,
    "buzz_score": 38,
    "hot_topic": "通常営業"
  },
  {
    "slug": "jogashima-js-fishing",
    "title": "【神奈川県】城ヶ島J’s Fishing｜船に乗らずに高級魚！徒歩で行ける海上釣り堀",
    "lat": 35.137378,
    "lng": 139.6129707,
    "buzz_score": 32,
    "hot_topic": "通常営業"
  },
  {
    "slug": "miura-kaiou",
    "title": "【神奈川県】みうら海王｜関東唯一の本格体験！船で渡る海上釣り堀でブリ・カンパチを狙え",
    "lat": 35.14093769999999,
    "lng": 139.6164291,
    "buzz_score": 39,
    "hot_topic": "通常営業"
  },
  {
    "slug": "sendai-port-central-park-sea-square",
    "title": "【宮城県】仙台港中央公園（海の広場）｜仙台駅から25分！入場無料で楽しめるファミリー釣り公園",
    "lat": 38.2715517,
    "lng": 140.9985807,
    "buzz_score": 13,
    "hot_topic": "通常営業"
  },
  {
    "slug": "yura-marine-fishing-pond",
    "title": "【山形県】由良海洋釣堀｜東北唯一の海上釣り堀！手ぶらで日本海の恵みを満喫",
    "lat": 38.7233581,
    "lng": 139.6840241,
    "buzz_score": 23,
    "hot_topic": "通常営業"
  },
  {
    "slug": "fishing-park-omishima",
    "title": "【愛媛県】フィッシングパーク大三島｜釣り桟橋と釣り堀が選べる！しまなみ海道の絶景スポット",
    "lat": 34.2514868,
    "lng": 132.9904359,
    "buzz_score": 40,
    "hot_topic": "通常営業"
  },
  {
    "slug": "searoad-yawatahama",
    "title": "【愛媛県】シーロード八幡浜｜600円で楽しめるバリアフリーの本格海釣りパーク",
    "lat": 33.4588824,
    "lng": 132.3901119,
    "buzz_score": 33,
    "hot_topic": "通常営業"
  },
  {
    "slug": "fukuoka-city-sea-fishing-park",
    "title": "【福岡県】福岡市海づり公園｜都市部から30分！手ぶらOKの巨大釣り桟橋＆真鯛釣堀",
    "lat": 33.6429994,
    "lng": 130.2227244,
    "buzz_score": 36,
    "hot_topic": "通常営業"
  },
  {
    "slug": "hiake-kaikyo-fishing-park",
    "title": "【福岡県】日明かんしんつり公園｜小倉駅近の無料スポット！工場夜景と楽しむ釣り",
    "lat": 33.9103859,
    "lng": 130.8524317,
    "buzz_score": 29,
    "hot_topic": "通常営業"
  },
  {
    "slug": "umingu-oshima",
    "title": "【福岡県】うみんぐ大島｜世界遺産の島で海上釣り堀＆堤防釣りを満喫！手ぶらOKの海洋体験施設",
    "lat": 33.901111,
    "lng": 130.432222,
    "buzz_score": 21,
    "hot_topic": "通常営業"
  },
  {
    "slug": "waita-sea-fishing-pier",
    "title": "【福岡県】脇田（わいた）海釣り桟橋｜手ぶらセット800円！響灘のコスパ最強スポット",
    "lat": 33.93175,
    "lng": 130.686944,
    "buzz_score": 25,
    "hot_topic": "通常営業"
  },
  {
    "slug": "kaijo-tsuribori-kaiyu",
    "title": "【広島県】海上釣り堀 海遊｜阿多田島の離島で高級魚14種が釣り放題！瀬戸内の爆釣パラダイス",
    "lat": 34.185278,
    "lng": 132.316389,
    "buzz_score": 22,
    "hot_topic": "通常営業"
  },
  {
    "slug": "kaijo-tsuribori-tairyomaru",
    "title": "【広島県】海上釣堀 大漁丸｜名物レモンサーモンと巨大青物が狙える離島イカダ！手厚い保証も魅力",
    "lat": 34.1825,
    "lng": 132.318889,
    "buzz_score": 39,
    "hot_topic": "通常営業"
  },
  {
    "slug": "shimanami-kaido-fishing-park",
    "title": "【広島県】しまなみ海道 つり堀公園｜絶景の瀬戸内海で手ぶら釣り！生口島の癒やしスポット",
    "lat": 34.288611,
    "lng": 133.090833,
    "buzz_score": 25,
    "hot_topic": "通常営業"
  },
  {
    "slug": "amagasaki-city-sea-fishing-park",
    "title": "【兵庫県】尼崎市立魚つり公園｜アクセス抜群！大阪湾奥のメッカで狙うチヌ・ハネ（スズキ）攻略ガイド",
    "lat": 34.6833048,
    "lng": 135.3690643,
    "buzz_score": 32,
    "hot_topic": "通常営業"
  },
  {
    "slug": "awaji-janohire-fishing-park",
    "title": "【兵庫県】淡路じゃのひれフィッシングパーク｜キャンプもイルカも！淡路島最大級の釣りリゾート",
    "lat": 34.2208354,
    "lng": 134.7330556,
    "buzz_score": 13,
    "hot_topic": "通常営業"
  },
  {
    "slug": "himeji-city-fishing-center",
    "title": "【兵庫県】姫路市立遊漁センター｜格安830円！温排水で冬でも釣れる公営釣り桟橋攻略ガイド",
    "lat": 34.7830556,
    "lng": 134.7558333,
    "buzz_score": 11,
    "hot_topic": "通常営業"
  },
  {
    "slug": "kaijo-tsuribori-at-sea",
    "title": "【兵庫県】海上釣り堀あっとしー（@sea）｜JR明石駅から徒歩15分！船に乗らない都市型釣り堀",
    "lat": 34.6402778,
    "lng": 135.0044444,
    "buzz_score": 14,
    "hot_topic": "通常営業"
  },
  {
    "slug": "kobe-hiraiso-sea-fishing-park",
    "title": "【兵庫県】神戸市立平磯海づり公園｜東西1.4km！電車で行ける格安＆快適な海釣りパラダイス",
    "lat": 34.6305556,
    "lng": 135.0608333,
    "buzz_score": 25,
    "hot_topic": "通常営業"
  },
  {
    "slug": "sea-fishing-pond-kaikei",
    "title": "【兵庫県】家島海上釣り堀 海恵（かいけい）｜播磨灘のメガ施設！姫路から渡船で渡る「爆釣の聖地」",
    "lat": 34.6975,
    "lng": 134.5097222,
    "buzz_score": 64,
    "hot_topic": "通常営業"
  },
  {
    "slug": "suihou-fishing-pond",
    "title": "【兵庫県】海上釣り堀 水宝（すいほう）｜世界最大級！姫路港から船で25分、夢のイケス群を攻略",
    "lat": 34.6975,
    "lng": 134.5097222,
    "buzz_score": 57,
    "hot_topic": "通常営業"
  },
  {
    "slug": "suma-sea-fishing-park",
    "title": "【兵庫県】須磨海づり公園｜2024年11月リニューアル！最新設備と絶景を楽しめる新生シンボル",
    "lat": 34.6397222,
    "lng": 135.0991667,
    "buzz_score": 38,
    "hot_topic": "通常営業"
  },
  {
    "slug": "naoshima-fishing-park",
    "title": "【香川県】直島つり公園｜入園料わずか100円！アートの聖地で楽しむ絶景＆本格海釣り",
    "lat": 34.444642,
    "lng": 134.001653,
    "buzz_score": 17,
    "hot_topic": "通常営業"
  },
  {
    "slug": "saltlake-hiketa-adoike",
    "title": "【香川県】ソルトレイクひけた 安戸池｜ハマチ養殖発祥の聖地で挑む！絶品オリーブハマチ＆巨大池でのルアー戦",
    "lat": 34.239162,
    "lng": 134.396105,
    "buzz_score": 13,
    "hot_topic": "通常営業"
  },
  {
    "slug": "shodoshima-furusatomura-fishing-pier",
    "title": "【香川県】小豆島ふるさと村 釣り桟橋｜※現在閉鎖中：オリーブの島で親しまれた観光釣りスポット",
    "lat": 34.471024,
    "lng": 134.236053,
    "buzz_score": 38,
    "hot_topic": "通常営業"
  },
  {
    "slug": "amami-sealand",
    "title": "【鹿児島県】奄美シーランド｜世界自然遺産の海で手ぶら船釣り！90分からの贅沢体験",
    "lat": 28.411646,
    "lng": 129.497556,
    "buzz_score": 18,
    "hot_topic": "通常営業"
  },
  {
    "slug": "kamoike-sea-fishing-park",
    "title": "【鹿児島県】鴨池海づり公園｜足元の水深25m！大人600円で青物の強烈な引きを体験",
    "lat": 31.557229,
    "lng": 130.562147,
    "buzz_score": 36,
    "hot_topic": "通常営業"
  },
  {
    "slug": "sakurajima-sea-fishing-park",
    "title": "【鹿児島県】桜島海づり公園｜活火山を望む絶景釣り場！200円で味わう非日常",
    "lat": 31.591729,
    "lng": 130.594414,
    "buzz_score": 36,
    "hot_topic": "通常営業"
  },
  {
    "slug": "kaijo-tsuribori-yukimaru",
    "title": "【高知県】海上釣り堀 幸丸｜高級魚釣り放題 or 1匹保証？選べる2つのコースで浦ノ内湾を攻略",
    "lat": 33.4447433,
    "lng": 133.4138278,
    "buzz_score": 37,
    "hot_topic": "通常営業"
  },
  {
    "slug": "raft-fishing-takahashi",
    "title": "【高知県】筏釣り 高橋渡船｜最大11時間遊んで4,000円！海上BBQも可能な極上の遊び場",
    "lat": 33.4481368,
    "lng": 133.4187068,
    "buzz_score": 12,
    "hot_topic": "通常営業"
  },
  {
    "slug": "tsuri-ikada-fukaura",
    "title": "【高知県】つり筏 深浦｜3,000円でトイレ・屋根・コーヒー付き！快適すぎる筏釣りパラダイス",
    "lat": 33.43768,
    "lng": 133.41414,
    "buzz_score": 10,
    "hot_topic": "通常営業"
  },
  {
    "slug": "amakusa-leisure-land",
    "title": "【熊本県】天草釣堀レジャーランド｜時間制料金・キープシステム・予約不要で気軽に海上釣堀体験",
    "lat": 32.5658138,
    "lng": 130.4534716,
    "buzz_score": 16,
    "hot_topic": "通常営業"
  },
  {
    "slug": "amakusa-rakutsuri",
    "title": "【熊本県】天草観光海上釣り堀 楽つり｜1時間完結・手ぶらOK・観光ついでに気軽体験",
    "lat": 32.547108,
    "lng": 130.124441,
    "buzz_score": 30,
    "hot_topic": "通常営業"
  },
  {
    "slug": "kaijo-tsuribori-tsuriichi",
    "title": "【熊本県】海上釣堀・釣りイカダ 釣り一｜3時間制・マダイ2匹保証・団体割引でお得な天草の海上釣り堀",
    "lat": 32.550827,
    "lng": 130.414511,
    "buzz_score": 15,
    "hot_topic": "通常営業"
  },
  {
    "slug": "sea-fishing-land",
    "title": "【熊本県】海釣りランド｜格安700円・手ぶらセット2,000円・橋型桟橋で本格波止釣り体験",
    "lat": 32.35985,
    "lng": 130.486302,
    "buzz_score": 26,
    "hot_topic": "通常営業"
  },
  {
    "slug": "yunoko-fishing-park",
    "title": "【熊本県】湯の児フィッシングパーク｜格安料金600円・レンタル充実・家族連れに優しい海釣り施設",
    "lat": 32.23369,
    "lng": 130.411046,
    "buzz_score": 15,
    "hot_topic": "通常営業"
  },
  {
    "slug": "maizuru-shinkai-park",
    "title": "【京都府】舞鶴親海公園｜入場無料！365日楽しめる舞鶴湾のファミリー釣り場",
    "lat": 35.5146292,
    "lng": 135.3438933,
    "buzz_score": 17,
    "hot_topic": "通常営業"
  },
  {
    "slug": "miyazu-city-marine-fishing-park",
    "title": "【京都府】宮津市海洋つり場｜絶景の宮津湾で楽しむ！格安1,100円の本格海釣り施設",
    "lat": 35.5536154,
    "lng": 135.2639799,
    "buzz_score": 37,
    "hot_topic": "通常営業"
  },
  {
    "slug": "anatani-aitai-fishing",
    "title": "【三重県】あなたに逢い鯛。釣り堀｜少人数限定！プライベート感満載の海上釣り堀",
    "lat": 34.3166961,
    "lng": 136.6461773,
    "buzz_score": 33,
    "hot_topic": "通常営業"
  },
  {
    "slug": "fishing-park-sasukeya",
    "title": "【三重県】釣り公園佐助屋｜2時間4,000円〜！伊勢志摩で一番「自由」な複合型釣り施設",
    "lat": 34.3172075,
    "lng": 136.649582,
    "buzz_score": 14,
    "hot_topic": "通常営業"
  },
  {
    "slug": "fishing-park-triton",
    "title": "【三重県】フィッシングパークトリトン｜2匹補償＆海上BBQ！鳥羽の恵みを満喫",
    "lat": 34.3872654,
    "lng": 136.8827418,
    "buzz_score": 33,
    "hot_topic": "通常営業"
  },
  {
    "slug": "hasamaura-fishing-center",
    "title": "【三重県】はさま浦釣り堀センター｜マダイ1匹保証＆最速移動の宿泊パックが魅力",
    "lat": 34.3163898,
    "lng": 136.6475616,
    "buzz_score": 26,
    "hot_topic": "通常営業"
  },
  {
    "slug": "kaijo-tsuribori-benya",
    "title": "【三重県】海上釣堀辨屋｜1日2回の放流で爆釣！南伊勢のレジェンド的釣り堀",
    "lat": 34.3144569,
    "lng": 136.6734008,
    "buzz_score": 36,
    "hot_topic": "通常営業"
  },
  {
    "slug": "kaijo-tsuribori-fukujumaru",
    "title": "【三重県】海上釣り堀福寿丸｜活きアジで青物狙い！会員制度がお得な南伊勢の本格派",
    "lat": 34.3202114,
    "lng": 136.6600141,
    "buzz_score": 25,
    "hot_topic": "通常営業"
  },
  {
    "slug": "kaijo-tsuribori-monkey",
    "title": "【三重県】海上釣堀モンキー｜3時間から遊べる！BBQも楽しめる鳥羽の手ぶら釣り堀",
    "lat": 34.4425599,
    "lng": 136.8895747,
    "buzz_score": 36,
    "hot_topic": "通常営業"
  },
  {
    "slug": "kaijo-tsuribori-wako",
    "title": "【三重県】海上釣堀和光｜ブリ・カンパチ・シマアジが舞い踊る南伊勢の高級魚パラダイス",
    "lat": 34.3224882,
    "lng": 136.6507294,
    "buzz_score": 40,
    "hot_topic": "通常営業"
  },
  {
    "slug": "kashikojima-fishing-park-kaiyuen",
    "title": "【三重県】賢島フィッシングパーク海遊苑｜駅チカ＆手ぶら！釣って即食べる極上体験",
    "lat": 34.3093062,
    "lng": 136.8280402,
    "buzz_score": 11,
    "hot_topic": "通常営業"
  },
  {
    "slug": "koueimaru",
    "title": "【三重県】光栄丸｜10回で1回無料！5,000円で楽しめる南伊勢の筏釣りパラダイス",
    "lat": 34.3125,
    "lng": 136.671608,
    "buzz_score": 10,
    "hot_topic": "通常営業"
  },
  {
    "slug": "marusui-kaisan",
    "title": "【三重県】マルスイ海産｜1日4,500円！尾鷲の秘境で挑む天然魚との真剣勝負",
    "lat": 33.9869939,
    "lng": 136.2398504,
    "buzz_score": 13,
    "hot_topic": "通常営業"
  },
  {
    "slug": "matsunase-fishing-park",
    "title": "【三重県】松名瀬フィッシングパーク｜陸の上で海の高級魚を！バリアフリーの海水池",
    "lat": 34.602385,
    "lng": 136.576692,
    "buzz_score": 28,
    "hot_topic": "通常営業"
  },
  {
    "slug": "naize-fishing-center",
    "title": "【三重県】内瀬釣りセンター｜2つの港を使い分け！チヌ師からファミリーまで楽しめる「筏のデパート」",
    "lat": 34.3452784,
    "lng": 136.6657225,
    "buzz_score": 18,
    "hot_topic": "通常営業"
  },
  {
    "slug": "ousatsu-sea-fishing-center",
    "title": "【三重県】相差海釣センター｜4時間5,500円！安心のボウズ保証＆鳥羽・相差観光にも最適",
    "lat": 34.3879472,
    "lng": 136.908548,
    "buzz_score": 13,
    "hot_topic": "通常営業"
  },
  {
    "slug": "tsuribori-denpachiya",
    "title": "【三重県】つり堀傳八屋｜13種以上の高級魚＆青物乱舞のイベントデーが熱い！",
    "lat": 34.3244939,
    "lng": 136.6494059,
    "buzz_score": 39,
    "hot_topic": "通常営業"
  },
  {
    "slug": "tsuribori-maruyo",
    "title": "【三重県】つりぼりマルヨ｜歩いて行ける「陸続き」！4日の大放流＆破格の子供料金が魅力",
    "lat": 34.2565523,
    "lng": 136.4963901,
    "buzz_score": 28,
    "hot_topic": "通常営業"
  },
  {
    "slug": "tsuribori-shotokumaru",
    "title": "【三重県】釣り堀 正徳丸｜ICから7分！高級魚・設備・アクセス全てが「A級」のハイスペック釣り堀",
    "lat": 34.1993805,
    "lng": 136.3560367,
    "buzz_score": 76,
    "hot_topic": "クエ放流中！"
  },
  {
    "slug": "ugata-hamatsuri-center",
    "title": "【三重県】鵜方浜釣センター｜屋根・トイレ完備の「快適筏」で英虞湾の野生チヌに挑む",
    "lat": 34.328532,
    "lng": 136.8066403,
    "buzz_score": 38,
    "hot_topic": "通常営業"
  },
  {
    "slug": "shibushi-bay-daikoku-dolphin-land",
    "title": "【宮崎県】志布志湾大黒イルカランド（天然釣堀）｜イルカショーも釣りも！釣った魚は全買取の「確実」な釣り堀",
    "lat": 31.460147,
    "lng": 131.161445,
    "buzz_score": 12,
    "hot_topic": "通常営業"
  },
  {
    "slug": "jumbo-fishing-mura",
    "title": "【長崎県】ジャンボフィッシング村｜予約不要・リリースOK！佐世保の「釣れる」海洋レジャー施設",
    "lat": 33.268535,
    "lng": 129.570167,
    "buzz_score": 19,
    "hot_topic": "通常営業"
  },
  {
    "slug": "mukai-pearl-marine",
    "title": "【長崎県】迎パールマリン｜全国的にも稀少！「移動式イカダ」で巡る九十九島の爆釣ポイント",
    "lat": 33.2725,
    "lng": 129.5858,
    "buzz_score": 40,
    "hot_topic": "通常営業"
  },
  {
    "slug": "shinkamigoto-sea-fishing-pond",
    "title": "【長崎県】新上五島町海上釣り堀｜五島列島の至宝！手ぶらで1時間、幻のクエや青物を狙い撃ち",
    "lat": 33.0031,
    "lng": 129.0664,
    "buzz_score": 31,
    "hot_topic": "通常営業"
  },
  {
    "slug": "takashima-tobishima-isotsuri-park",
    "title": "【長崎県】高島飛島磯釣り公園｜往復フェリーで離島へ！520円で味わう本格磯釣りの聖地",
    "lat": 32.6658,
    "lng": 129.7583,
    "buzz_score": 36,
    "hot_topic": "通常営業"
  },
  {
    "slug": "tsuribori-hamakatsu",
    "title": "【長崎県】釣り堀はまかつ（ハマカツ）｜驚異の13魚種！ブリ・マダイが舞い踊る九州屈指の爆釣ステージ",
    "lat": 33.3664,
    "lng": 129.6739,
    "buzz_score": 31,
    "hot_topic": "通常営業"
  },
  {
    "slug": "kamae-sea-fishing-tsunchaoh",
    "title": "【大分県】かまえ海上釣り堀 釣っちゃ王｜竿1本でシェアOK！マダイ保証付きの初心者天国",
    "lat": 32.791965,
    "lng": 131.886108,
    "buzz_score": 11,
    "hot_topic": "通常営業"
  },
  {
    "slug": "itoman-ikada-tsurigu-no-zousan",
    "title": "【沖縄県】糸満イカダ（つりぐのぞうさん）｜那覇空港から30分！南国パワーと格闘する天然釣り場",
    "lat": 26.142279,
    "lng": 127.662034,
    "buzz_score": 11,
    "hot_topic": "通常営業"
  },
  {
    "slug": "motobu-fishing-ikada-umiseikatsu",
    "title": "【沖縄県】本部釣りイカダ 海生活｜美ら海水族館すぐ！釣りにBBQに遊び尽くす「海上の楽園」",
    "lat": 26.6588295,
    "lng": 127.8903089,
    "buzz_score": 28,
    "hot_topic": "通常営業"
  },
  {
    "slug": "kaijo-tsuribori-misaki",
    "title": "【大阪府】海上釣堀 岬｜深日港から徒歩圏内！電車で行ける数少ない海上釣り堀",
    "lat": 34.322606,
    "lng": 135.147453,
    "buzz_score": 22,
    "hot_topic": "通常営業"
  },
  {
    "slug": "kaijo-tsuribori-opa",
    "title": "【大阪府】海上釣り堀オーパ｜ボウズ保証あり！初心者も100%楽しめる「絶対釣らせる」釣り場",
    "lat": 34.321321,
    "lng": 135.119016,
    "buzz_score": 28,
    "hot_topic": "通常営業"
  },
  {
    "slug": "koshima-sea-fishing-pond",
    "title": "【大阪府】小島養漁場｜入り江を丸ごと釣場に！ルアーもOKな「超・自然派」海上釣り堀",
    "lat": 34.311814,
    "lng": 135.093377,
    "buzz_score": 37,
    "hot_topic": "通常営業"
  },
  {
    "slug": "nanko-fishing-park",
    "title": "【大阪府】南港魚つり園護岸｜入場無料！市内から30分で楽しめる本格海釣りスポット",
    "lat": 34.614566,
    "lng": 135.403181,
    "buzz_score": 20,
    "hot_topic": "通常営業"
  },
  {
    "slug": "osaka-sea-fishing-southern",
    "title": "【大阪府】大阪海上釣り堀サザン｜関空対岸で高級魚ハント！ナイターも人気の釣りパラダイス",
    "lat": 34.380463,
    "lng": 135.257944,
    "buzz_score": 36,
    "hot_topic": "通常営業"
  },
  {
    "slug": "totto-park-koshima",
    "title": "【大阪府】とっとパーク小島｜絶景の海釣り公園！青物・マダイが狙える関西屈指の人気スポット",
    "lat": 34.31517,
    "lng": 135.09989,
    "buzz_score": 12,
    "hot_topic": "通常営業"
  },
  {
    "slug": "umizuri-port-tajiri",
    "title": "【大阪府】海釣ぽーと田尻｜雨でも安心！橋の下にある全天候型・放流満載の釣り堀",
    "lat": 34.400258,
    "lng": 135.28514,
    "buzz_score": 18,
    "hot_topic": "通常営業"
  },
  {
    "slug": "kariyawan-fishing-center",
    "title": "【佐賀県】仮屋湾遊漁センター｜天然と養殖が共存！初心者から大物狙いまで楽しめる4つのコース",
    "lat": 33.460842,
    "lng": 129.855853,
    "buzz_score": 28,
    "hot_topic": "通常営業"
  },
  {
    "slug": "family-tsuribori-tsutteminde",
    "title": "【徳島県】ファミリー釣り堀 釣ってみんでフィッシング｜雨の日OK・手ぶらで高級魚ハント！",
    "lat": 34.0557658,
    "lng": 134.5917235,
    "buzz_score": 18,
    "hot_topic": "通常営業"
  },
  {
    "slug": "hamabe-tosen-kaijo-tsuribori",
    "title": "【徳島県】浜部渡船 海上釣り堀｜格安30分3,000円！高級ブランド「すだちブリ」も狙える超効率プラン",
    "lat": 33.557866,
    "lng": 134.313487,
    "buzz_score": 18,
    "hot_topic": "通常営業"
  },
  {
    "slug": "kaijo-tsuribori-yuasa",
    "title": "【和歌山県】海上釣堀 湯浅｜駅近・1日3回放流！電車でも行ける本格釣り堀",
    "lat": 34.0322,
    "lng": 135.1741,
    "buzz_score": 10,
    "hot_topic": "通常営業"
  },
  {
    "slug": "kakata-fishing-pond",
    "title": "【和歌山県】カタタの釣堀｜白浜温泉＆とれとれ市場に隣接！2コース制が嬉しい海上釣り堀",
    "lat": 33.685353,
    "lng": 135.372646,
    "buzz_score": 29,
    "hot_topic": "通常営業"
  },
  {
    "slug": "saikakizaki-seapark",
    "title": "【和歌山県】雑賀崎シーパーク｜桟橋で歩いて渡れるバリアフリー海上釣り堀！チョイ釣りもOK",
    "lat": 34.188126,
    "lng": 135.148458,
    "buzz_score": 35,
    "hot_topic": "通常営業"
  },
  {
    "slug": "tsuribori-kishu",
    "title": "【和歌山県】釣堀紀州｜大阪から90分！ボウズ保証＆ポイント制でリピーター続出の海上釣り堀",
    "lat": 34.006361,
    "lng": 135.142559,
    "buzz_score": 12,
    "hot_topic": "通常営業"
  },
  {
    "slug": "wakayama-marinacity-fishing-park",
    "title": "【和歌山県】和歌山マリーナシティ海釣り公園｜観光ついでに手ぶらで！海釣り公園＆釣り堀が楽しめる",
    "lat": 34.150792,
    "lng": 135.181183,
    "buzz_score": 20,
    "hot_topic": "通常営業"
  },
  {
    "slug": "yura-sea-fishing-park",
    "title": "【和歌山県】由良海つり公園｜海上釣り堀＆筏釣りの二刀流！由良湾の穏やかな海で大物を狙う",
    "lat": 33.957992,
    "lng": 135.094317,
    "buzz_score": 27,
    "hot_topic": "通常営業"
  },
  {
    "slug": "fishing-park-hikari",
    "title": "【山口県】フィッシングパーク光｜瀬戸内の絶景と多彩な魚種が魅力！手ぶらOKの海釣り施設",
    "lat": 33.928127,
    "lng": 131.964297,
    "buzz_score": 36,
    "hot_topic": "通常営業"
  },
  {
    "slug": "shimonoseki-fishing-park",
    "title": "【山口県】下関フィッシングパーク｜響灘の絶景と安全な金網桟橋！家族で安心の釣りガイド",
    "lat": 34.06452891,
    "lng": 130.90135707,
    "buzz_score": 22,
    "hot_topic": "通常営業"
  },
  {
    "slug": "susawan-fishing-park",
    "title": "【山口県】須佐湾フィッシングパーク｜天然の入り江で高級魚を狙う！絶景の海上釣り堀",
    "lat": 34.620831,
    "lng": 131.600574,
    "buzz_score": 11,
    "hot_topic": "通常営業"
  }
]